{"status":200,"data":[{"BaseID":34,"Latitude":40.25,"ID":1,"Longitude":116.40529,"Province":"北京","Name":"沙河机场"},{"BaseID":34,"Latitude":43.42,"ID":11,"Longitude":112.09,"Province":"内蒙古二连浩特","Name":"二连浩特赛乌素机场"},{"BaseID":34,"Latitude":23.466,"ID":12,"Longitude":120.383,"Province":"嘉义","Name":"嘉义机场"},{"BaseID":34,"Latitude":49.57,"ID":13,"Longitude":117.33132,"Province":"满洲里","Name":"满洲里西郊机场"},{"BaseID":34,"Latitude":37.68,"ID":14,"Longitude":111.14,"Province":"吕梁","Name":"吕梁大武机场"},{"BaseID":34,"Latitude":39.72151,"ID":15,"Longitude":118.0,"Province":"唐山","Name":"唐山三女河机场"},{"BaseID":34,"Latitude":23.72,"ID":16,"Longitude":106.96,"Province":"百色","Name":"百色田阳机场"},{"BaseID":34,"Latitude":29.1,"ID":17,"Longitude":110.44172,"Province":"张家界","Name":"张家界荷花机场"},{"BaseID":34,"Latitude":32.84,"ID":18,"Longitude":97.04181,"Province":"玉树","Name":"玉树巴塘机场"},{"BaseID":34,"Latitude":32.56191,"ID":19,"Longitude":119.72191,"Province":"扬州","Name":"扬州泰州机场"},{"BaseID":34,"Latitude":30.56,"ID":20,"Longitude":111.48203,"Province":"宜昌","Name":"宜昌三峡机场"},{"BaseID":34,"Latitude":36.08212,"ID":21,"Longitude":106.22211,"Province":"固原","Name":"固原六盘山机场"},{"BaseID":34,"Latitude":38.54221,"ID":22,"Longitude":102.35,"Province":"金昌","Name":"金昌金川机场"},{"BaseID":34,"Latitude":43.91,"ID":23,"Longitude":87.47231,"Province":"乌鲁木齐","Name":"乌鲁木齐地窝堡机场"},{"BaseID":34,"Latitude":21.97,"ID":24,"Longitude":100.76242,"Province":"西双版纳","Name":"西双版纳嘎洒机场"},{"BaseID":34,"Latitude":23.55,"ID":25,"Longitude":116.5,"Province":"汕头","Name":"揭阳潮汕机场"},{"BaseID":34,"Latitude":25.68,"ID":26,"Longitude":116.75,"Province":"福建龙岩","Name":"连城冠豸山机场"},{"BaseID":34,"Latitude":36.42702,"ID":27,"Longitude":94.79271,"Province":"格尔木","Name":"格尔木机场"},{"BaseID":34,"Latitude":36.27,"ID":28,"Longitude":120.37283,"Province":"青岛","Name":"青岛流亭机场"},{"BaseID":34,"Latitude":25.05,"ID":29,"Longitude":99.17,"Province":"保山","Name":"保山机场"},{"BaseID":34,"Latitude":26.43,"ID":30,"Longitude":117.83302,"Province":"福建三明","Name":"福建三明机场"},{"BaseID":34,"Latitude":30.58,"ID":31,"Longitude":117.05313,"Province":"安庆","Name":"安庆机场"},{"BaseID":34,"Latitude":32.1,"ID":32,"Longitude":80.05323,"Province":"阿里","Name":"阿里昆莎机场"},{"BaseID":34,"Latitude":31.14,"ID":33,"Longitude":121.79331,"Province":"上海浦东","Name":"上海浦东机场"},{"BaseID":34,"Latitude":27.99,"ID":34,"Longitude":102.18,"Province":"西昌","Name":"西昌青山机场"},{"BaseID":34,"Latitude":38.15352,"ID":35,"Longitude":85.53,"Province":"且末","Name":"且末机场"},{"BaseID":34,"Latitude":37.66,"ID":36,"Longitude":120.98363,"Province":"烟台","Name":"烟台莱山机场"},{"BaseID":34,"Latitude":44.24372,"ID":37,"Longitude":85.89,"Province":"石河子","Name":"石河子花园机场"},{"BaseID":34,"Latitude":32.85,"ID":38,"Longitude":103.68,"Province":"九寨沟","Name":"九寨黄龙机场"},{"BaseID":34,"Latitude":44.93902,"ID":39,"Longitude":82.33903,"Province":"博乐","Name":"博乐阿拉山口机场"},{"BaseID":34,"Latitude":41.54401,"ID":40,"Longitude":120.43,"Province":"朝阳","Name":"朝阳机场"},{"BaseID":34,"Latitude":47.75,"ID":41,"Longitude":129.02414,"Province":"伊春","Name":"伊春林都机场"},{"BaseID":34,"Latitude":42.07,"ID":42,"Longitude":127.6,"Province":"长白山","Name":"长白山机场"},{"BaseID":34,"Latitude":36.13431,"ID":43,"Longitude":111.64,"Province":"临汾","Name":"临汾乔李机场"},{"BaseID":34,"Latitude":24.81,"ID":44,"Longitude":107.71,"Province":"广西河池","Name":"河池金城江机场"},{"BaseID":34,"Latitude":38.75,"ID":45,"Longitude":105.58452,"Province":"阿拉善","Name":"阿拉善机场"},{"BaseID":34,"Latitude":21.54461,"ID":46,"Longitude":109.29461,"Province":"北海","Name":"北海福成机场"},{"BaseID":34,"Latitude":28.92,"ID":47,"Longitude":111.64,"Province":"常德","Name":"常德桃花源机场"},{"BaseID":34,"Latitude":42.02,"ID":48,"Longitude":101.0,"Province":"阿拉善额济纳旗","Name":"阿拉善额济纳旗桃来机场"},{"BaseID":34,"Latitude":42.16,"ID":49,"Longitude":118.84,"Province":"赤峰","Name":"赤峰玉龙机场"},{"BaseID":34,"Latitude":22.955,"ID":50,"Longitude":120.2,"Province":"台南","Name":"台南机场"},{"BaseID":34,"Latitude":43.91,"ID":51,"Longitude":115.96,"Province":"锡林浩特","Name":"锡林浩特机场"},{"BaseID":34,"Latitude":47.31521,"ID":52,"Longitude":119.91524,"Province":"阿尔山市","Name":"阿尔山伊尔施机场"},{"BaseID":34,"Latitude":37.13531,"ID":53,"Longitude":97.27,"Province":"德令哈市","Name":"海西德令哈机场"},{"BaseID":34,"Latitude":38.81541,"ID":54,"Longitude":100.66544,"Province":"张掖","Name":"张掖甘州机场"},{"BaseID":34,"Latitude":30.78551,"ID":55,"Longitude":114.21,"Province":"武汉","Name":"武汉天河机场"},{"BaseID":34,"Latitude":24.4,"ID":56,"Longitude":98.53,"Province":"芒市","Name":"德宏芒市机场"},{"BaseID":34,"Latitude":25.65,"ID":57,"Longitude":100.32,"Province":"大理","Name":"大理荒草坝机场"},{"BaseID":34,"Latitude":32.98,"ID":58,"Longitude":112.61581,"Province":"南阳","Name":"南阳姜营机场"},{"BaseID":34,"Latitude":32.15592,"ID":59,"Longitude":112.29591,"Province":"襄阳","Name":"襄阳刘集机场"},{"BaseID":34,"Latitude":22.64,"ID":60,"Longitude":113.81,"Province":"深圳","Name":"深圳宝安机场"},{"BaseID":34,"Latitude":31.99,"ID":61,"Longitude":116.98613,"Province":"合肥","Name":"合肥新桥机场"},{"BaseID":34,"Latitude":33.43,"ID":62,"Longitude":120.2,"Province":"盐城","Name":"盐城南洋机场"},{"BaseID":34,"Latitude":30.23,"ID":63,"Longitude":120.43,"Province":"杭州","Name":"杭州萧山机场"},{"BaseID":34,"Latitude":27.27,"ID":64,"Longitude":105.47641,"Province":"毕节","Name":"毕节飞雄机场"},{"BaseID":34,"Latitude":35.29651,"ID":65,"Longitude":116.35,"Province":"济宁","Name":"济宁曲阜机场"},{"BaseID":34,"Latitude":29.34,"ID":66,"Longitude":120.03,"Province":"义乌","Name":"义乌机场"},{"BaseID":34,"Latitude":47.75,"ID":67,"Longitude":88.08672,"Province":"阿勒泰","Name":"阿勒泰机场"},{"BaseID":34,"Latitude":34.57,"ID":68,"Longitude":118.87683,"Province":"连云港","Name":"连云港白塔埠机场"},{"BaseID":34,"Latitude":31.92,"ID":69,"Longitude":119.78,"Province":"常州","Name":"常州奔牛机场"},{"BaseID":34,"Latitude":29.3,"ID":70,"Longitude":94.34,"Province":"林芝","Name":"林芝米林机场"},{"BaseID":34,"Latitude":41.11711,"ID":71,"Longitude":122.85,"Province":"鞍山","Name":"鞍山腾鳌机场"},{"BaseID":34,"Latitude":48.27201,"ID":72,"Longitude":134.3672,"Province":"抚远","Name":"黑龙江抚远东极机场"},{"BaseID":34,"Latitude":29.51,"ID":73,"Longitude":108.83732,"Province":"黔江","Name":"黔江武陵山机场"},{"BaseID":34,"Latitude":44.0,"ID":74,"Longitude":125.69742,"Province":"长春","Name":"长春龙嘉机场"},{"BaseID":34,"Latitude":30.8,"ID":75,"Longitude":108.43,"Province":"万州","Name":"万州五桥机场"},{"BaseID":34,"Latitude":40.54761,"ID":76,"Longitude":122.36761,"Province":"营口","Name":"营口兰旗机场"},{"BaseID":34,"Latitude":26.97,"ID":77,"Longitude":107.99,"Province":"凯里","Name":"贵州凯里黄平机场"},{"BaseID":34,"Latitude":52.92,"ID":78,"Longitude":122.42,"Province":"漠河","Name":"漠河古莲机场"},{"BaseID":34,"Latitude":30.0,"ID":79,"Longitude":110.0,"Province":"镇江","Name":"镇江大路通用机场"},{"BaseID":34,"Latitude":28.56,"ID":80,"Longitude":121.43,"Province":"台州","Name":"台州路桥机场"},{"BaseID":34,"Latitude":34.82,"ID":81,"Longitude":102.62813,"Province":"甘南","Name":"甘南夏河机场"},{"BaseID":34,"Latitude":28.8,"ID":82,"Longitude":104.55823,"Province":"宜宾","Name":"宜宾菜坝机场"},{"BaseID":34,"Latitude":37.19,"ID":83,"Longitude":122.23833,"Province":"威海","Name":"威海大水泊机场"},{"BaseID":34,"Latitude":43.43,"ID":84,"Longitude":83.38,"Province":"那拉提","Name":"新源那拉提机场"},{"BaseID":34,"Latitude":49.21,"ID":85,"Longitude":119.83852,"Province":"海拉尔","Name":"呼伦贝尔海拉尔机场"},{"BaseID":34,"Latitude":39.79861,"ID":86,"Longitude":106.88603,"Province":"乌海","Name":"乌海机场"},{"BaseID":34,"Latitude":26.34,"ID":87,"Longitude":111.61871,"Province":"永州","Name":"永州零陵机场"},{"BaseID":34,"Latitude":26.72,"ID":88,"Longitude":112.62883,"Province":"衡阳","Name":"衡阳东江机场"},{"BaseID":34,"Latitude":21.984,"ID":89,"Longitude":113.466,"Province":"澳门","Name":"澳门机场"},{"BaseID":34,"Latitude":50.6441,"ID":90,"Longitude":121.2838,"Province":"根河市","Name":"根河敖鲁古雅机场"},{"BaseID":34,"Latitude":39.49912,"ID":91,"Longitude":109.86911,"Province":"鄂尔多斯","Name":"鄂尔多斯伊金霍洛机场"},{"BaseID":34,"Latitude":22.71,"ID":92,"Longitude":111.6,"Province":"罗定","Name":"广东省罗定机场"},{"BaseID":34,"Latitude":40.06931,"ID":93,"Longitude":113.48933,"Province":"大同","Name":"大同云冈机场"},{"BaseID":34,"Latitude":24.02,"ID":94,"Longitude":121.606,"Province":"花莲","Name":"花莲机场"},{"BaseID":34,"Latitude":24.21,"ID":95,"Longitude":109.39,"Province":"柳州","Name":"柳州白莲机场"},{"BaseID":34,"Latitude":32.88961,"ID":96,"Longitude":115.73963,"Province":"阜阳","Name":"阜阳机场"},{"BaseID":34,"Latitude":28.85,"ID":97,"Longitude":105.39,"Province":"泸州","Name":"泸州蓝田机场"},{"BaseID":34,"Latitude":38.97981,"ID":98,"Longitude":121.54981,"Province":"大连","Name":"大连周水子机场"},{"BaseID":34,"Latitude":47.52,"ID":99,"Longitude":122.4608,"Province":"扎兰屯","Name":"扎兰屯成吉思汗机场"},{"BaseID":34,"Latitude":23.05,"ID":100,"Longitude":114.6,"Province":"惠州","Name":"惠州平潭机场"},{"BaseID":34,"Latitude":39.12,"ID":101,"Longitude":117.35,"Province":"天津","Name":"天津滨海机场"},{"BaseID":34,"Latitude":37.57,"ID":102,"Longitude":105.151024,"Province":"中卫","Name":"中卫沙坡头机场"},{"BaseID":34,"Latitude":27.8,"ID":103,"Longitude":114.31,"Province":"宜春","Name":"宜春明月山机场"},{"BaseID":34,"Latitude":43.96,"ID":104,"Longitude":81.33104,"Province":"伊宁","Name":"伊宁机场"},{"BaseID":34,"Latitude":25.1,"ID":105,"Longitude":102.941055,"Province":"昆明","Name":"昆明长水机场"},{"BaseID":34,"Latitude":39.86106,"ID":106,"Longitude":98.34,"Province":"嘉峪关","Name":"嘉峪关机场"},{"BaseID":34,"Latitude":29.32,"ID":107,"Longitude":100.06,"Province":"稻城","Name":"稻城亚丁机场"},{"BaseID":34,"Latitude":31.2108,"ID":108,"Longitude":121.34,"Province":"上海虹桥","Name":"上海虹桥机场"},{"BaseID":34,"Latitude":50.17,"ID":109,"Longitude":127.31,"Province":"黑河","Name":"黑河机场"},{"BaseID":34,"Latitude":41.68,"ID":110,"Longitude":82.8711,"Province":"库车","Name":"库车龟兹机场"},{"BaseID":34,"Latitude":22.753,"ID":111,"Longitude":121.09,"Province":"台东","Name":"台东丰年机场"},{"BaseID":34,"Latitude":37.75,"ID":112,"Longitude":112.63,"Province":"太原","Name":"太原武宿机场"},{"BaseID":34,"Latitude":24.25,"ID":113,"Longitude":120.6,"Province":"台中市","Name":"台中"},{"BaseID":34,"Latitude":39.67,"ID":114,"Longitude":119.06,"Province":"秦皇岛","Name":"秦皇岛北戴河国际机场"},{"BaseID":34,"Latitude":28.19115,"ID":115,"Longitude":113.22115,"Province":"长沙","Name":"长沙黄花机场"},{"BaseID":34,"Latitude":23.39,"ID":116,"Longitude":113.31,"Province":"广州","Name":"广州白云机场"},{"BaseID":34,"Latitude":40.07,"ID":117,"Longitude":116.6,"Province":"北京","Name":"北京首都机场"},{"BaseID":34,"Latitude":22.01,"ID":118,"Longitude":113.38,"Province":"珠海","Name":"珠海金湾机场"},{"BaseID":34,"Latitude":36.64,"ID":119,"Longitude":109.55119,"Province":"延安","Name":"延安机场"},{"BaseID":34,"Latitude":24.27,"ID":120,"Longitude":116.1,"Province":"梅县","Name":"梅县长岗岌机场"},{"BaseID":34,"Latitude":32.93954,"ID":121,"Longitude":117.36694,"Province":"蚌埠","Name":"蚌埠机场"},{"BaseID":34,"Latitude":27.91,"ID":122,"Longitude":120.85,"Province":"温州","Name":"温州龙湾机场"},{"BaseID":34,"Latitude":27.33,"ID":123,"Longitude":103.76123,"Province":"昭通","Name":"昭通机场"},{"BaseID":34,"Latitude":30.14,"ID":124,"Longitude":101.74,"Province":"康定","Name":"康定机场"},{"BaseID":34,"Latitude":26.54125,"ID":125,"Longitude":106.8125,"Province":"贵阳","Name":"贵阳龙洞堡机场"},{"BaseID":34,"Latitude":43.03,"ID":126,"Longitude":89.1,"Province":"吐鲁番","Name":"吐鲁番交河机场"},{"BaseID":34,"Latitude":44.52,"ID":127,"Longitude":129.57127,"Province":"牡丹江","Name":"牡丹江海浪机场"},{"BaseID":34,"Latitude":45.291283,"ID":128,"Longitude":131.19128,"Province":"鸡西","Name":"鸡西兴凯湖机场"},{"BaseID":34,"Latitude":30.32,"ID":129,"Longitude":109.49,"Province":"恩施","Name":"恩施许家坪机场"},{"BaseID":34,"Latitude":30.323,"ID":130,"Longitude":112.28,"Province":"沙市","Name":"荆州沙市机场"},{"BaseID":34,"Latitude":25.85,"ID":131,"Longitude":114.78,"Province":"赣州","Name":"赣州黄金机场"},{"BaseID":34,"Latitude":29.48,"ID":132,"Longitude":115.8132,"Province":"九江","Name":"九江庐山机场"},{"BaseID":34,"Latitude":26.68,"ID":133,"Longitude":100.25,"Province":"丽江","Name":"丽江三义机场"},{"BaseID":34,"Latitude":26.32,"ID":134,"Longitude":109.151344,"Province":"黎平","Name":"黎平机场"},{"BaseID":34,"Latitude":30.47,"ID":135,"Longitude":105.61135,"Province":"遂宁","Name":"遂宁机场"},{"BaseID":34,"Latitude":42.88136,"ID":136,"Longitude":129.45,"Province":"延吉","Name":"延吉朝阳川机场"},{"BaseID":34,"Latitude":30.56,"ID":137,"Longitude":97.111374,"Province":"昌都","Name":"昌都邦达机场"},{"BaseID":34,"Latitude":22.228,"ID":138,"Longitude":114.125,"Province":"香港","Name":"香港赤鱲角国际机场"},{"BaseID":34,"Latitude":27.441391,"ID":139,"Longitude":109.71,"Province":"怀化","Name":"怀化芷江机场"},{"BaseID":34,"Latitude":39.968,"ID":140,"Longitude":119.7314,"Province":"秦皇岛","Name":"秦皇岛山海关机场"},{"BaseID":34,"Latitude":46.75,"ID":141,"Longitude":125.14,"Province":"大庆","Name":"大庆萨尔图机场"},{"BaseID":34,"Latitude":27.791422,"ID":142,"Longitude":99.68,"Province":"迪庆","Name":"迪庆香格里拉机场"},{"BaseID":34,"Latitude":21.22,"ID":143,"Longitude":110.36143,"Province":"湛江","Name":"湛江机场"},{"BaseID":34,"Latitude":33.13144,"ID":144,"Longitude":107.2,"Province":"汉中","Name":"汉中机场"},{"BaseID":34,"Latitude":23.74,"ID":145,"Longitude":100.02,"Province":"临沧","Name":"临沧博上机场"},{"BaseID":34,"Latitude":25.941462,"ID":146,"Longitude":119.66146,"Province":"福州","Name":"福州长乐机场"},{"BaseID":34,"Latitude":35.41,"ID":147,"Longitude":119.32,"Province":"日照","Name":"日照山字河机场"},{"BaseID":34,"Latitude":29.93,"ID":148,"Longitude":122.36148,"Province":"舟山","Name":"舟山普陀山机场"},{"BaseID":34,"Latitude":31.43,"ID":149,"Longitude":104.74,"Province":"绵阳","Name":"绵阳南郊机场"},{"BaseID":34,"Latitude":26.26,"ID":150,"Longitude":105.871506,"Province":"安顺","Name":"安顺黄果树机场"},{"BaseID":34,"Latitude":42.84,"ID":151,"Longitude":93.67,"Province":"哈密","Name":"哈密机场"},{"BaseID":34,"Latitude":39.26,"ID":152,"Longitude":122.7,"Province":"长海","Name":"长海机场"},{"BaseID":34,"Latitude":42.05,"ID":153,"Longitude":125.73153,"Province":"通化","Name":"通化机场"},{"BaseID":34,"Latitude":40.03,"ID":154,"Longitude":124.29154,"Province":"丹东","Name":"丹东浪头机场"},{"BaseID":34,"Latitude":46.2155,"ID":155,"Longitude":122.0,"Province":"乌兰浩特","Name":"乌兰浩特依勒力特机场"},{"BaseID":34,"Latitude":39.23,"ID":156,"Longitude":101.55156,"Province":"阿拉善右旗","Name":"阿拉善右旗巴丹吉林机场"},{"BaseID":34,"Latitude":40.85,"ID":157,"Longitude":111.82,"Province":"呼和浩特","Name":"呼和浩特白塔国际机场"},{"BaseID":34,"Latitude":25.075,"ID":158,"Longitude":121.226,"Province":"桃园","Name":"桃园中正机场"},{"BaseID":34,"Latitude":36.52,"ID":159,"Longitude":114.42,"Province":"邯郸","Name":"邯郸机场"},{"BaseID":34,"Latitude":22.576,"ID":160,"Longitude":120.343,"Province":"高雄","Name":"高雄机场"},{"BaseID":34,"Latitude":35.12,"ID":161,"Longitude":111.03,"Province":"运城","Name":"运城张孝机场"},{"BaseID":34,"Latitude":32.71,"ID":162,"Longitude":108.93,"Province":"安康","Name":"安康机场"},{"BaseID":34,"Latitude":18.3,"ID":163,"Longitude":109.41164,"Province":"三亚","Name":"三亚凤凰机场"},{"BaseID":34,"Latitude":34.741642,"ID":164,"Longitude":112.39,"Province":"洛阳","Name":"洛阳机场"},{"BaseID":34,"Latitude":34.56165,"ID":165,"Longitude":105.86165,"Province":"天水","Name":"天水麦积山机场"},{"BaseID":34,"Latitude":23.46,"ID":166,"Longitude":111.25,"Province":"梧州","Name":"梧州机场"},{"BaseID":34,"Latitude":22.611671,"ID":167,"Longitude":108.17,"Province":"南宁","Name":"南宁吴圩机场"},{"BaseID":34,"Latitude":34.45168,"ID":168,"Longitude":108.75,"Province":"西安","Name":"西安咸阳机场"},{"BaseID":34,"Latitude":29.34,"ID":169,"Longitude":117.18,"Province":"景德镇","Name":"景德镇罗家机场"},{"BaseID":34,"Latitude":31.74,"ID":170,"Longitude":118.8617,"Province":"南京","Name":"南京禄口机场"},{"BaseID":34,"Latitude":29.83,"ID":171,"Longitude":121.47171,"Province":"宁波","Name":"宁波栎社机场"},{"BaseID":34,"Latitude":37.51,"ID":172,"Longitude":118.79172,"Province":"东营","Name":"东营机场"},{"BaseID":34,"Latitude":36.651733,"ID":173,"Longitude":119.121735,"Province":"潍坊","Name":"潍坊机场"},{"BaseID":34,"Latitude":27.717402,"ID":174,"Longitude":118.0,"Province":"武夷山","Name":"武夷山机场"},{"BaseID":34,"Latitude":26.611752,"ID":175,"Longitude":104.98175,"Province":"六盘水","Name":"六盘水月照机场"},{"BaseID":34,"Latitude":24.541761,"ID":176,"Longitude":118.13,"Province":"厦门","Name":"厦门高崎机场"},{"BaseID":34,"Latitude":29.3,"ID":177,"Longitude":90.91177,"Province":"拉萨","Name":"拉萨贡嘎机场"},{"BaseID":34,"Latitude":26.536,"ID":178,"Longitude":101.791,"Province":"攀枝花","Name":"攀枝花保安营机场"},{"BaseID":34,"Latitude":27.81,"ID":179,"Longitude":107.25,"Province":"遵义","Name":"遵义新舟机场"},{"BaseID":34,"Latitude":48.2218,"ID":180,"Longitude":87.0,"Province":"喀纳斯","Name":"布尔津喀纳斯机场"},{"BaseID":34,"Latitude":32.53,"ID":181,"Longitude":102.35,"Province":"阿坝州","Name":"阿坝红原机场"},{"BaseID":34,"Latitude":47.24182,"ID":182,"Longitude":123.92,"Province":"齐齐哈尔","Name":"齐齐哈尔三家子机场"},{"BaseID":34,"Latitude":46.67,"ID":183,"Longitude":83.35,"Province":"塔城","Name":"塔城机场"},{"BaseID":34,"Latitude":40.94,"ID":184,"Longitude":121.28,"Province":"锦州","Name":"锦州机场"},{"BaseID":34,"Latitude":38.28,"ID":185,"Longitude":114.7,"Province":"石家庄","Name":"石家庄正定机场"},{"BaseID":34,"Latitude":40.56186,"ID":186,"Longitude":110.0,"Province":"包头","Name":"包头机场"},{"BaseID":34,"Latitude":40.93,"ID":187,"Longitude":107.74,"Province":"巴彦淖尔","Name":"巴彦淖尔天吉泰机场"},{"BaseID":34,"Latitude":38.2188,"ID":188,"Longitude":90.84,"Province":"青海","Name":"青海海西花七沟机场"},{"BaseID":34,"Latitude":38.32,"ID":189,"Longitude":106.39,"Province":"银川","Name":"银川河东机场"},{"BaseID":34,"Latitude":38.3619,"ID":190,"Longitude":109.59,"Province":"榆林","Name":"榆林榆阳机场"},{"BaseID":34,"Latitude":24.8,"ID":191,"Longitude":118.59,"Province":"晋江","Name":"泉州晋江机场"},{"BaseID":34,"Latitude":33.79192,"ID":192,"Longitude":119.13,"Province":"淮安","Name":"淮安涟水机场"},{"BaseID":34,"Latitude":34.06193,"ID":193,"Longitude":117.56,"Province":"徐州","Name":"徐州观音机场"},{"BaseID":34,"Latitude":44.381943,"ID":194,"Longitude":131.12,"Province":"绥芬河","Name":"绥芬河阜宁机场"},{"BaseID":34,"Latitude":46.8,"ID":195,"Longitude":89.511955,"Province":"富蕴","Name":"富蕴机场"},{"BaseID":34,"Latitude":37.04196,"ID":196,"Longitude":79.86196,"Province":"和田","Name":"和田机场"},{"BaseID":34,"Latitude":25.22,"ID":197,"Longitude":110.04197,"Province":"桂林","Name":"桂林两江机场"},{"BaseID":34,"Latitude":38.6,"ID":198,"Longitude":112.97198,"Province":"忻州","Name":"五台山机场有限责任公司"},{"BaseID":34,"Latitude":36.25,"ID":199,"Longitude":113.13,"Province":"长治","Name":"长治王村机场"},{"BaseID":34,"Latitude":43.562,"ID":200,"Longitude":122.2,"Province":"通辽","Name":"通辽机场"},{"BaseID":34,"Latitude":24.846,"ID":201,"Longitude":121.508,"Province":"台北","Name":"台北松山机场"},{"BaseID":34,"Latitude":31.63,"ID":202,"Longitude":110.34,"Province":"神农架","Name":"神农架红坪机场"},{"BaseID":34,"Latitude":22.79203,"ID":203,"Longitude":100.96,"Province":"普洱","Name":"普洱思茅机场"},{"BaseID":34,"Latitude":22.25,"ID":204,"Longitude":113.59,"Province":"九洲","Name":"珠海九洲机场"},{"BaseID":34,"Latitude":36.53,"ID":205,"Longitude":102.04205,"Province":"西宁","Name":"西宁曹家堡机场"},{"BaseID":34,"Latitude":30.74,"ID":206,"Longitude":117.69206,"Province":"池州","Name":"池州九华山机场"},{"BaseID":34,"Latitude":31.13,"ID":207,"Longitude":107.43,"Province":"达州","Name":"达州河市机场"},{"BaseID":34,"Latitude":28.862082,"ID":208,"Longitude":115.9208,"Province":"南昌","Name":"南昌昌北机场"},{"BaseID":34,"Latitude":31.49,"ID":209,"Longitude":120.43,"Province":"无锡","Name":"无锡硕放机场"},{"BaseID":34,"Latitude":36.52,"ID":210,"Longitude":103.6221,"Province":"兰州","Name":"兰州中川机场"},{"BaseID":34,"Latitude":29.35,"ID":211,"Longitude":89.31,"Province":"日喀则","Name":"日喀则和平机场"},{"BaseID":34,"Latitude":50.3,"ID":212,"Longitude":124.1,"Province":"大兴安岭","Name":"加格达奇嘎仙机场"},{"BaseID":34,"Latitude":25.452131,"ID":213,"Longitude":107.96,"Province":"荔波","Name":"荔波机场"},{"BaseID":34,"Latitude":39.54214,"ID":214,"Longitude":76.02,"Province":"喀什","Name":"喀什机场"},{"BaseID":34,"Latitude":31.278551,"ID":215,"Longitude":120.62988,"Province":"苏州","Name":"苏州机场"},{"BaseID":34,"Latitude":49.178112,"ID":216,"Longitude":125.22766,"Province":"嫩江","Name":"嫩江机场"},{"BaseID":34,"Latitude":41.62,"ID":217,"Longitude":86.14,"Province":"库尔勒","Name":"库尔勒机场"},{"BaseID":34,"Latitude":19.93,"ID":218,"Longitude":110.46,"Province":"海口","Name":"海口美兰机场"},{"BaseID":34,"Latitude":32.59,"ID":219,"Longitude":110.91219,"Province":"十堰","Name":"十堰武当山机场"},{"BaseID":34,"Latitude":40.16,"ID":220,"Longitude":94.81,"Province":"敦煌","Name":"敦煌机场"},{"BaseID":34,"Latitude":24.942211,"ID":221,"Longitude":98.49,"Province":"腾冲","Name":"腾冲驼峰机场"},{"BaseID":34,"Latitude":30.583544,"ID":222,"Longitude":114.30176,"Province":"王家墩","Name":"武汉王家墩机场"},{"BaseID":34,"Latitude":32.07,"ID":223,"Longitude":120.98223,"Province":"南通","Name":"南通兴东机场"},{"BaseID":34,"Latitude":36.86224,"ID":224,"Longitude":117.222244,"Province":"济南","Name":"济南遥墙机场"},{"BaseID":34,"Latitude":41.26,"ID":225,"Longitude":80.29225,"Province":"阿克苏","Name":"阿克苏温宿机场"},{"BaseID":34,"Latitude":30.952261,"ID":226,"Longitude":104.33226,"Province":"广汉","Name":"广汉机场"},{"BaseID":34,"Latitude":28.97,"ID":227,"Longitude":118.9227,"Province":"衢州","Name":"衢州机场"},{"BaseID":34,"Latitude":35.05,"ID":228,"Longitude":118.412285,"Province":"临沂","Name":"临沂沭埠岭机场"},{"BaseID":34,"Latitude":44.003,"ID":229,"Longitude":126.395,"Province":"吉林","Name":"吉林二台子机场"},{"BaseID":34,"Latitude":30.58,"ID":230,"Longitude":103.95,"Province":"成都","Name":"成都双流机场"},{"BaseID":34,"Latitude":25.09,"ID":231,"Longitude":104.96,"Province":"兴义","Name":"兴义机场"},{"BaseID":34,"Latitude":27.88,"ID":232,"Longitude":109.31,"Province":"铜仁","Name":"铜仁凤凰机场"},{"BaseID":34,"Latitude":35.8,"ID":233,"Longitude":107.6,"Province":"庆阳","Name":"庆阳西峰机场"},{"BaseID":34,"Latitude":23.56,"ID":234,"Longitude":104.332344,"Province":"文山","Name":"文山普者黑机场"},{"BaseID":34,"Latitude":34.52,"ID":235,"Longitude":113.84,"Province":"郑州","Name":"新郑机场"},{"BaseID":34,"Latitude":26.862362,"ID":236,"Longitude":114.74,"Province":"吉安","Name":"井冈山机场"},{"BaseID":34,"Latitude":32.39,"ID":237,"Longitude":105.692375,"Province":"广元","Name":"广元盘龙机场"},{"BaseID":34,"Latitude":29.73,"ID":238,"Longitude":118.26238,"Province":"黄山","Name":"黄山屯溪机场"},{"BaseID":34,"Latitude":30.8,"ID":239,"Longitude":106.16239,"Province":"南充","Name":"南充高坪机场"},{"BaseID":34,"Latitude":45.4724,"ID":240,"Longitude":84.95,"Province":"克拉玛依","Name":"克拉玛依机场"},{"BaseID":34,"Latitude":46.84,"ID":241,"Longitude":130.46242,"Province":"佳木斯","Name":"佳木斯机场"},{"BaseID":34,"Latitude":41.64,"ID":242,"Longitude":123.48242,"Province":"沈阳","Name":"沈阳桃仙机场"},{"BaseID":34,"Latitude":27.54243,"ID":243,"Longitude":100.76243,"Province":"宁蒗县","Name":"宁蒗泸沽湖机场"},{"BaseID":34,"Latitude":29.72,"ID":244,"Longitude":106.64,"Province":"重庆","Name":"重庆江北机场"},{"BaseID":34,"Latitude":45.62,"ID":245,"Longitude":126.25,"Province":"哈尔滨","Name":"哈尔滨太平机场"},{"BaseID":34,"Latitude":41.128284,"ID":246,"Longitude":113.10995,"Province":"内蒙古","Name":"乌兰察布集宁机场"},{"BaseID":34,"Latitude":35.116066,"ID":247,"Longitude":111.03616,"Province":"山西","Name":"运城盐湖机场"},{"BaseID":34,"Latitude":36.04542,"ID":248,"Longitude":111.494354,"Province":"山西","Name":"临汾尧都机场"},{"BaseID":34,"Latitude":39.404118,"ID":249,"Longitude":114.15771,"Province":"山西","Name":"大同灵丘武灵机场"},{"BaseID":34,"Latitude":40.7394,"ID":250,"Longitude":114.9289,"Province":"河北","Name":"张家口宁远机场"},{"BaseID":34,"Latitude":37.90278,"ID":251,"Longitude":114.610085,"Province":"河北","Name":"河北石家庄栾城人影基地"},{"BaseID":34,"Latitude":38.5977,"ID":252,"Longitude":112.9678,"Province":"山西","Name":"忻州定襄"},{"BaseID":34,"Latitude":39.059715,"ID":253,"Longitude":111.749954,"Province":"山西","Name":"忻州五寨"}],"message":null,"timestamp":"2025-07-31 06:48:12","time":"0ms"}